[{"nome":"Teatro Brigitte Blair","latitude":"-22.977920","longitude":"-43.191293","endereco":"Rua Miguel Lemos, 51 - Copacabana"},{"nome":"Teatro da Praia","latitude":"-22.983633","longitude":"-43.193341","endereco":"Rua Francisco Sá, 88 - Copacabana"},{"nome":"Praia de Botafogo","latitude":"-22.945115","longitude":"-43.180842","endereco":"Avenida das Nações Unidas, s/n - Botafogo"},{"nome":"Parque Peter Pan","latitude":"-22.983185","longitude":"-43.192067","endereco":"Rua Francisco Sá, s/n - Copacabana"},{"nome":"Praia do Arpoador","latitude":"-22.988889","longitude":"-43.192778","endereco":"Avenida Francisco Bering, s/n - Ipanema"},{"nome":"Praia de Copacabana","latitude":"-22.968588","longitude":"-43.179109","endereco":"Avenida Atlântica, s/n - Copacabana"},{"nome":"Sala Baden Powell","latitude":"-22.967121","longitude":"-43.180619","endereco":"Avenida Nossa Senhora de Copacabana, 360 - Copacabana"},{"nome":"Teatro Gláucio Gil","latitude":"-22.965395","longitude":"-43.180805","endereco":"Praça Cardeal Arcoverde, s/n - Copacabana"},{"nome":"Casa França Brasil","latitude":"-22.900394","longitude":"-43.175986","endereco":"Rua Visconde de Itaboraí, 78 - Centro"},{"nome":"Centro Cultural Banco do Brasil","latitude":"-22.900606","longitude":"-43.176517","endereco":"Rua Primeiro de Março, 66 - Centro"},{"nome":"Centro Cultural dos Correios","latitude":"-22.901291","longitude":"-43.175839","endereco":"Rua Visconde de Itaboraí, 20 - Centro"},{"nome":"Espaço Cultural da Marinha","latitude":"-22.901083","longitude":"-43.174447","endereco":"Avenida Alfred Agache, s/n - Centro"},{"nome":"Igreja Nossa Senhora da Candelária","latitude":"-22.900735","longitude":"-43.177643","endereco":"Praça Pio X, s/n - Centro"},{"nome":"Igreja Nossa Senhora do Carmo da Antiga Sé","latitude":"-22.903240","longitude":"-43.175264","endereco":"Rua 7 de Setembro, 12 - Centro"},{"nome":"Mosteiro de São Bento","latitude":"-22.896747","longitude":"-43.177885","endereco":"Rua Dom Gerardo, 68 - Centro"},{"nome":"Teatro Bibi Ferreira","latitude":"-22.946069","longitude":"-43.185328","endereco":"Rua Visconde de Ouro Preto, 78 - Botafogo"},{"nome":"Teatro Café Pequeno","latitude":"-22.983817","longitude":"-43.217927","endereco":"Avenida Ataulfo de Paiva, 269 - Leblon"},{"nome":"Casa Laura Alvin","latitude":"-22.986681","longitude":"-43.199243","endereco":"Avenida Vieira Souto, 176 - Ipanema"},{"nome":"Praia de Ipanema","latitude":"-22.987197","longitude":"-43.203228","endereco":"Avenida Vieira Souto, s/n - Ipanema"},{"nome":"Centro Cultural Candido Mendes","latitude":"-22.984857","longitude":"-43.205058","endereco":"Rua Joana Angélica, 63 - Ipanema"},{"nome":"Teatro Ipanema","latitude":"-22.985310","longitude":"-43.204790","endereco":"Rua Prudente de Morais, 824 - Ipanema"},{"nome":"Museu do Clube Naval","latitude":"-22.908181","longitude":"-43.176617","endereco":"Avenida almirante Barroso, 63 - Centro"},{"nome":"Museu Histórico Nacional","latitude":"-22.905556","longitude":"-43.169444","endereco":"Praça Marechal Âncora, s/n - Centro"},{"nome":"Museu Nacional de Belas Artes","latitude":"-22.908900","longitude":"-43.176096","endereco":"Avenida Rio Branco, 199 - Centro"},{"nome":"Paço Imperial","latitude":"-22.903544","longitude":"-43.174265","endereco":"Praça XV, s/n - Centro"},{"nome":"Palácio Tiradentes","latitude":"-22.904107","longitude":"-43.174227","endereco":"Rua Primeiro de Março, s/n - Centro"},{"nome":"Teatro Glauce Rocha","latitude":"-22.907265","longitude":"-43.176726","endereco":"Avenida Rio Branco, 179 - Centro"},{"nome":"Museu Carmem Miranda","latitude":"-22.941391","longitude":"-43.172410","endereco":"Avenida Rui Barbosa, s/n - Flamengo"},{"nome":"Teatro Princesa Isabel","latitude":"-22.963013","longitude":"-43.174309","endereco":"Avenida Princesa Isabel, 186 - Copacabana"},{"nome":"Teatro Villa Lobos","latitude":"-22.961308","longitude":"-43.175283","endereco":"Avenida Princesa Isabel, 440 - Copacabana"},{"nome":"Confeitaria Colombo","latitude":"-22.905249","longitude":"-43.178803","endereco":"Rua Gonçalves Dias, 32 - Centro"},{"nome":"Biblioteca Nacional","latitude":"-22.909770","longitude":"-43.175689","endereco":"Avenida Rio Branco, 219 - Centro"},{"nome":"Igreja de São Francisco da Penitência","latitude":"-22.906907","longitude":"-43.179261","endereco":"Largo da Carioca, 5 - Centro"},{"nome":"Teatro Dulcina","latitude":"-22.910700","longitude":"-43.177058","endereco":"Rua Alcindo Guanabara, 17 - Centro"},{"nome":"Teatro Municipal","latitude":"-22.909392","longitude":"-43.176388","endereco":"Praça Marechal Floriano, s/n - Centro"},{"nome":"Teatro Rival Petrobras","latitude":"-22.911194","longitude":"-43.176263","endereco":"Rua Álvaro Alvim, 33 - Cinelândia"},{"nome":"Academia Brasileira de Letras","latitude":"-22.910877","longitude":"-43.172971","endereco":"Avenida Presidente Wilson, 203 - Centro"},{"nome":"Museu de Arte Moderna","latitude":"-22.913817","longitude":"-43.173207","endereco":"Avenida Infante Dom Henrique, 85 - Flamengo"},{"nome":"Sala Cecília Meireles","latitude":"-22.914348","longitude":"-43.178233","endereco":"Rua da Lapa, 47 - Lapa"},{"nome":"Teatro do Instituto Benjamin Constant","latitude":"-22.953049","longitude":"-43.171969","endereco":"Avenida Pasteur, 350 - Urca"}]