[{"nome":"Praia do Leblon","latitude":"-22.987276","longitude":"-43.221914","endereco":"Avenida Delfim Moreira, s/n - Leblon"},{"nome":"Parque Lage","latitude":"-22.961288","longitude":"-43.213113","endereco":"Rua Jardim Botânico, 414 - Jardim Botânico"},{"nome":"Teatro Casa do Riso","latitude":"-22.979878","longitude":"-43.222715","endereco":"Rua Adalberto Ferreira, 32 - Leblon"},{"nome":"Teatro Leblon","latitude":"-22.980851","longitude":"-43.222653","endereco":"Rua Conde de Bernadotte, 26 - Leblon"},{"nome":"Jardim Botânico","latitude":"-22.970885","longitude":"-43.223279","endereco":"Rua Jardim Botânico, 1008 - Jardim Botânico"},{"nome":"Teatro Amador O Tablado","latitude":"-22.965087","longitude":"-43.216575","endereco":"Avenida Lineu de Paula Machado, 795 - Lagoa"},{"nome":"Parque Eduardo Guinle","latitude":"-22.931401","longitude":"-43.182485","endereco":"Rua Gago Coutinho, 66 - Laranjeiras"},{"nome":"Campo de Santana","latitude":"-22.906667","longitude":"-43.188333","endereco":"Avenida Presidente Vargas, s/n - Centro"},{"nome":"Espaço Cultura Sergio Porto","latitude":"-22.958328","longitude":"-43.199558","endereco":"Rua Humaitá, 163 - Humaitá"},{"nome":"Museu do Índio","latitude":"-22.952010","longitude":"-43.191312","endereco":"Rua das Palmeiras, 55 - Botafogo"},{"nome":"Jockey Club Brasileiro","latitude":"-22.973863","longitude":"-43.225714","endereco":"Praça Santos Dumont, s/n - Gávea"},{"nome":"Teatro Casa da Gávea","latitude":"-22.974058","longitude":"-43.226980","endereco":"Praça Santos Dumont, 116 - Gávea"},{"nome":"Teatro Clara Nunes","latitude":"-22.975621","longitude":"-43.228071","endereco":"Rua Marquês de São Vicente, 52 - Gávea"},{"nome":"Teatro das Artes","latitude":"-22.975730","longitude":"-43.228284","endereco":"Rua Marquês de São Vicente, 52 - Gávea"},{"nome":"Teatro do Jockey","latitude":"-22.976997","longitude":"-43.224933","endereco":"Rua Bartolomeu Mitre, 1110 - Jardim Botânico"},{"nome":"Teatro dos Quatro","latitude":"-22.975678","longitude":"-43.228018","endereco":"Rua Marquês de São Vicente, 52 - Gávea"},{"nome":"Teatro Vanucci","latitude":"-22.975678","longitude":"-43.228262","endereco":"Rua Marquês de São Vicente, 52 - Gávea"},{"nome":"Fundação Casa de Rui Barbosa","latitude":"-22.949440","longitude":"-43.186908","endereco":"Rua São Clemente, 134 - Botafogo"},{"nome":"Teatro Bibi Ferreira","latitude":"-22.946069","longitude":"-43.185328","endereco":"Rua Visconde de Ouro Preto, 78 - Botafogo"},{"nome":"Praia de Botafogo","latitude":"-22.945115","longitude":"-43.180842","endereco":"Avenida das Nações Unidas, s/n - Botafogo"},{"nome":"Sambódromo","latitude":"-22.911470","longitude":"-43.196838","endereco":"Rua Marquês de Sapucaí, s/n - Santo Cristo"},{"nome":"Cidade do Samba","latitude":"-22.894338","longitude":"-43.197015","endereco":"Rua Rivadávia Correia, 60 - Gamboa"},{"nome":"Memorial dos Pretos Novos","latitude":"-22.896071","longitude":"-43.192958","endereco":"Rua Pedro Ernesto, 34 - Gamboa"},{"nome":"Planetário","latitude":"-22.978839","longitude":"-43.230247","endereco":"Rua Vice-governador Rubens Berardo, 100 - Gávea"},{"nome":"Teatro Maria Clara Machado","latitude":"-22.978844","longitude":"-43.230249","endereco":"Avenida Padre Leonel Franca, 240 - Gávea"}]