[{"nome":"Casa França Brasil","latitude":"-22.900394","longitude":"-43.175986","endereco":"Rua Visconde de Itaboraí, 78 - Centro"},{"nome":"Centro Cultural Banco do Brasil","latitude":"-22.900606","longitude":"-43.176517","endereco":"Rua Primeiro de Março, 66 - Centro"},{"nome":"Centro Cultural dos Correios","latitude":"-22.901291","longitude":"-43.175839","endereco":"Rua Visconde de Itaboraí, 20 - Centro"},{"nome":"Confeitaria Colombo","latitude":"-22.905249","longitude":"-43.178803","endereco":"Rua Gonçalves Dias, 32 - Centro"},{"nome":"Espaço Cultural da Marinha","latitude":"-22.901083","longitude":"-43.174447","endereco":"Avenida Alfred Agache, s/n - Centro"},{"nome":"Igreja Nossa Senhora da Candelária","latitude":"-22.900735","longitude":"-43.177643","endereco":"Praça Pio X, s/n - Centro"},{"nome":"Igreja Nossa Senhora do Carmo da Antiga Sé","latitude":"-22.903240","longitude":"-43.175264","endereco":"Rua 7 de Setembro, 12 - Centro"},{"nome":"Teatro Ziembinski","latitude":"-22.920947","longitude":"-43.223917","endereco":"Avenida Heitor Beltrão, s/n - Tijuca"},{"nome":"Sambódromo","latitude":"-22.911470","longitude":"-43.196838","endereco":"Rua Marquês de Sapucaí, s/n - Santo Cristo"},{"nome":"Campo de Santana","latitude":"-22.906667","longitude":"-43.188333","endereco":"Avenida Presidente Vargas, s/n - Centro"},{"nome":"Mosteiro de São Bento","latitude":"-22.896747","longitude":"-43.177885","endereco":"Rua Dom Gerardo, 68 - Centro"},{"nome":"Real Gabinete Português de Leitura","latitude":"-22.905466","longitude":"-43.182171","endereco":"Rua Luís de Camões, 30 - Centro"},{"nome":"Teatro João Caetano","latitude":"-22.906390","longitude":"-43.182289","endereco":"Praça Tiradentes, s/n - Centro"}]