[{"nome":"Teatro CEC Antonio Fagundes","latitude":"-22.990025","longitude":"-43.366205","endereco":"Avenida Ayrton Senna, 2541A - Barra da Tijuca"},{"nome":"Cidade do Samba","latitude":"-22.894338","longitude":"-43.197015","endereco":"Rua Rivadávia Correia, 60 - Gamboa"},{"nome":"Memorial dos Pretos Novos","latitude":"-22.896071","longitude":"-43.192958","endereco":"Rua Pedro Ernesto, 34 - Gamboa"},{"nome":"Praia Recreio dos Bandeirantes","latitude":"-23.026462","longitude":"-43.459303","endereco":"Avenida Lúcio Costa, s/n - Recreio dos Bandeirantes"},{"nome":"Real Gabinete Português de Leitura","latitude":"-22.905466","longitude":"-43.182171","endereco":"Rua Luís de Camões, 30 - Centro"},{"nome":"Cidade das Artes","latitude":"-22.998611","longitude":"-43.365556","endereco":"Avenida das Américas, s/n - Barra da Tijuca"},{"nome":"Centro Luiz Gonzaga de Tradições Nordestinas","latitude":"-22.896809","longitude":"-43.219341","endereco":"Pavilhão de São Cristóvão, s/n - São Cristóvão"},{"nome":"Bosque da Barra","latitude":"-22.999839","longitude":"-43.371817","endereco":"Avenida das Américas, KM6.5 - Barra da Tijuca"},{"nome":"Museu de Arte do Rio","latitude":"-22.896174","longitude":"-43.181736","endereco":"Praça Mauá, 5 - Centro"},{"nome":"Campo de Santana","latitude":"-22.906667","longitude":"-43.188333","endereco":"Avenida Presidente Vargas, s/n - Centro"}]