[{"nome":"Campo de Santana","latitude":"-22.906667","longitude":"-43.188333","endereco":"Avenida Presidente Vargas, s/n - Centro"},{"nome":"Igreja Nossa Senhora da Candelária","latitude":"-22.900735","longitude":"-43.177643","endereco":"Praça Pio X, s/n - Centro"},{"nome":"Confeitaria Colombo","latitude":"-22.905249","longitude":"-43.178803","endereco":"Rua Gonçalves Dias, 32 - Centro"},{"nome":"Real Gabinete Português de Leitura","latitude":"-22.905466","longitude":"-43.182171","endereco":"Rua Luís de Camões, 30 - Centro"},{"nome":"Teatro João Caetano","latitude":"-22.906390","longitude":"-43.182289","endereco":"Praça Tiradentes, s/n - Centro"},{"nome":"Casa França Brasil","latitude":"-22.900394","longitude":"-43.175986","endereco":"Rua Visconde de Itaboraí, 78 - Centro"},{"nome":"Centro Cultural Banco do Brasil","latitude":"-22.900606","longitude":"-43.176517","endereco":"Rua Primeiro de Março, 66 - Centro"},{"nome":"Centro Cultural dos Correios","latitude":"-22.901291","longitude":"-43.175839","endereco":"Rua Visconde de Itaboraí, 20 - Centro"},{"nome":"Mosteiro de São Bento","latitude":"-22.896747","longitude":"-43.177885","endereco":"Rua Dom Gerardo, 68 - Centro"}]