[{"nome":"Catedral Metropolitana","latitude":"-22.910887","longitude":"-43.180728","endereco":"Avenida República do Chile, 245 - Centro"},{"nome":"Igreja de São Francisco da Penitência","latitude":"-22.906907","longitude":"-43.179261","endereco":"Largo da Carioca, 5 - Centro"},{"nome":"Real Gabinete Português de Leitura","latitude":"-22.905466","longitude":"-43.182171","endereco":"Rua Luís de Camões, 30 - Centro"},{"nome":"Teatro Carlos Gomes","latitude":"-22.907223","longitude":"-43.182519","endereco":"Rua Pedro Primeiro, 4A - Centro"},{"nome":"Teatro João Caetano","latitude":"-22.906390","longitude":"-43.182289","endereco":"Praça Tiradentes, s/n - Centro"},{"nome":"Praia de Ramos","latitude":"-22.838716","longitude":"-43.250386","endereco":"Rua Gérson Ferreira, s/n - Maré"},{"nome":"Campo de Santana","latitude":"-22.906667","longitude":"-43.188333","endereco":"Avenida Presidente Vargas, s/n - Centro"},{"nome":"Arcos da Lapa","latitude":"-22.912867","longitude":"-43.179908","endereco":"Praça Cardeal Câmara, s/n - Lapa"},{"nome":"Biblioteca Nacional","latitude":"-22.909770","longitude":"-43.175689","endereco":"Avenida Rio Branco, 219 - Centro"},{"nome":"Confeitaria Colombo","latitude":"-22.905249","longitude":"-43.178803","endereco":"Rua Gonçalves Dias, 32 - Centro"},{"nome":"Museu do Clube Naval","latitude":"-22.908181","longitude":"-43.176617","endereco":"Avenida almirante Barroso, 63 - Centro"},{"nome":"Museu Nacional de Belas Artes","latitude":"-22.908900","longitude":"-43.176096","endereco":"Avenida Rio Branco, 199 - Centro"},{"nome":"Teatro Dulcina","latitude":"-22.910700","longitude":"-43.177058","endereco":"Rua Alcindo Guanabara, 17 - Centro"},{"nome":"Teatro Glauce Rocha","latitude":"-22.907265","longitude":"-43.176726","endereco":"Avenida Rio Branco, 179 - Centro"},{"nome":"Teatro Municipal","latitude":"-22.909392","longitude":"-43.176388","endereco":"Praça Marechal Floriano, s/n - Centro"},{"nome":"Teatro Rival Petrobras","latitude":"-22.911194","longitude":"-43.176263","endereco":"Rua Álvaro Alvim, 33 - Cinelândia"},{"nome":"Parque Municipal Fazenda do Viegas","latitude":"-22.885358","longitude":"-43.485030","endereco":"Rua Marmiári, 221 - Senador Camará"}]