[{"nome":"Praia de Botafogo","latitude":"-22.945115","longitude":"-43.180842","endereco":"Avenida das Nações Unidas, s/n - Botafogo"},{"nome":"Igreja e Convento de Santa Teresa","latitude":"-22.915657","longitude":"-43.180307","endereco":"Ladeira de Santa Teresa, 52 - Santa Teresa"},{"nome":"Monumento aos Pracinhas","latitude":"-22.916495","longitude":"-43.174055","endereco":"Aterro do Flamengo, s/n - Flamengo"},{"nome":"Museu de Arte Moderna","latitude":"-22.913817","longitude":"-43.173207","endereco":"Avenida Infante Dom Henrique, 85 - Flamengo"},{"nome":"Praça Paris","latitude":"-22.917222","longitude":"-43.175833","endereco":"Avenida Augusto Severo, s/n - Glória"},{"nome":"Sala Cecília Meireles","latitude":"-22.914348","longitude":"-43.178233","endereco":"Rua da Lapa, 47 - Lapa"},{"nome":"Igreja Nossa Senhora da Glória do Outeiro","latitude":"-22.921327","longitude":"-43.175339","endereco":"Ladeira da Glória, s/n - Glória"},{"nome":"Teatro Glória","latitude":"-22.922971","longitude":"-43.172697","endereco":"Rua do Russel, 632 - Glória"},{"nome":"Arcos da Lapa","latitude":"-22.912867","longitude":"-43.179908","endereco":"Praça Cardeal Câmara, s/n - Lapa"},{"nome":"Catedral Metropolitana","latitude":"-22.910887","longitude":"-43.180728","endereco":"Avenida República do Chile, 245 - Centro"},{"nome":"Teatro Dulcina","latitude":"-22.910700","longitude":"-43.177058","endereco":"Rua Alcindo Guanabara, 17 - Centro"},{"nome":"Teatro Rival Petrobras","latitude":"-22.911194","longitude":"-43.176263","endereco":"Rua Álvaro Alvim, 33 - Cinelândia"},{"nome":"Museu Carmem Miranda","latitude":"-22.941391","longitude":"-43.172410","endereco":"Avenida Rui Barbosa, s/n - Flamengo"},{"nome":"Aterro do Flamengo","latitude":"-22.928990","longitude":"-43.171813","endereco":"Avenida Infante Dom Henrique, s/n - Flamengo"},{"nome":"Museu da República","latitude":"-22.925868","longitude":"-43.176447","endereco":"Rua do Catete, 160 - Catete"},{"nome":"Museu de Folclore Edison Carneiro","latitude":"-22.926054","longitude":"-43.176409","endereco":"Rua do Catete, 181 - Catete"},{"nome":"Oi Futuro","latitude":"-22.930000","longitude":"-43.176389","endereco":"Rua Dois de Dezembro, 63 - Flamengo"},{"nome":"Praia do Flamengo","latitude":"-22.929425","longitude":"-43.171299","endereco":"Avenida Infante Dom Henrique, s/n - Flamengo"},{"nome":"Parque das Ruínas","latitude":"-22.917560","longitude":"-43.182462","endereco":"Rua Murtinho Nobre, 169 - Santa Teresa"},{"nome":"Sambódromo","latitude":"-22.911470","longitude":"-43.196838","endereco":"Rua Marquês de Sapucaí, s/n - Santo Cristo"},{"nome":"Teatro Noel Rosa","latitude":"-22.910731","longitude":"-43.237617","endereco":"Rua São Francisco Xavier, 524 - Maracanã"},{"nome":"Museu da Chácara do Céu","latitude":"-22.917345","longitude":"-43.184135","endereco":"Rua Murtinho Nobre, 93 - Santa Teresa"},{"nome":"Estádio do Maracanã","latitude":"-22.913604","longitude":"-43.231068","endereco":"Rua Professor Eurico Rabelo, s/n - Maracanã"},{"nome":"Teatro Odylo Costa Filho","latitude":"-22.910556","longitude":"-43.235000","endereco":"Rua São Francisco Xavier, 524 - Maracanã"},{"nome":"Teatro Ziembinski","latitude":"-22.920947","longitude":"-43.223917","endereco":"Avenida Heitor Beltrão, s/n - Tijuca"},{"nome":"Teatro Bibi Ferreira","latitude":"-22.946069","longitude":"-43.185328","endereco":"Rua Visconde de Ouro Preto, 78 - Botafogo"},{"nome":"Teatro Princesa Isabel","latitude":"-22.963013","longitude":"-43.174309","endereco":"Avenida Princesa Isabel, 186 - Copacabana"},{"nome":"Teatro Villa Lobos","latitude":"-22.961308","longitude":"-43.175283","endereco":"Avenida Princesa Isabel, 440 - Copacabana"},{"nome":"Teatro do Instituto Benjamin Constant","latitude":"-22.953049","longitude":"-43.171969","endereco":"Avenida Pasteur, 350 - Urca"}]