[{"nome":"Casa Laura Alvin","latitude":"-22.986681","longitude":"-43.199243","endereco":"Avenida Vieira Souto, 176 - Ipanema"},{"nome":"Praia de Ipanema","latitude":"-22.987197","longitude":"-43.203228","endereco":"Avenida Vieira Souto, s/n - Ipanema"},{"nome":"Teatro Noel Rosa","latitude":"-22.910731","longitude":"-43.237617","endereco":"Rua São Francisco Xavier, 524 - Maracanã"},{"nome":"Teatro Odylo Costa Filho","latitude":"-22.910556","longitude":"-43.235000","endereco":"Rua São Francisco Xavier, 524 - Maracanã"},{"nome":"Sambódromo","latitude":"-22.911470","longitude":"-43.196838","endereco":"Rua Marquês de Sapucaí, s/n - Santo Cristo"},{"nome":"Arcos da Lapa","latitude":"-22.912867","longitude":"-43.179908","endereco":"Praça Cardeal Câmara, s/n - Lapa"},{"nome":"Catedral Metropolitana","latitude":"-22.910887","longitude":"-43.180728","endereco":"Avenida República do Chile, 245 - Centro"},{"nome":"Igreja e Convento de Santa Teresa","latitude":"-22.915657","longitude":"-43.180307","endereco":"Ladeira de Santa Teresa, 52 - Santa Teresa"},{"nome":"Parque das Ruínas","latitude":"-22.917560","longitude":"-43.182462","endereco":"Rua Murtinho Nobre, 169 - Santa Teresa"},{"nome":"Sala Cecília Meireles","latitude":"-22.914348","longitude":"-43.178233","endereco":"Rua da Lapa, 47 - Lapa"},{"nome":"Teatro Brigitte Blair","latitude":"-22.977920","longitude":"-43.191293","endereco":"Rua Miguel Lemos, 51 - Copacabana"},{"nome":"Igreja Nossa Senhora da Glória do Outeiro","latitude":"-22.921327","longitude":"-43.175339","endereco":"Ladeira da Glória, s/n - Glória"},{"nome":"Praça Paris","latitude":"-22.917222","longitude":"-43.175833","endereco":"Avenida Augusto Severo, s/n - Glória"},{"nome":"Teatro Glória","latitude":"-22.922971","longitude":"-43.172697","endereco":"Rua do Russel, 632 - Glória"},{"nome":"Museu da República","latitude":"-22.925868","longitude":"-43.176447","endereco":"Rua do Catete, 160 - Catete"},{"nome":"Museu de Folclore Edison Carneiro","latitude":"-22.926054","longitude":"-43.176409","endereco":"Rua do Catete, 181 - Catete"},{"nome":"Oi Futuro","latitude":"-22.930000","longitude":"-43.176389","endereco":"Rua Dois de Dezembro, 63 - Flamengo"},{"nome":"Praia de Botafogo","latitude":"-22.945115","longitude":"-43.180842","endereco":"Avenida das Nações Unidas, s/n - Botafogo"},{"nome":"Teatro Bibi Ferreira","latitude":"-22.946069","longitude":"-43.185328","endereco":"Rua Visconde de Ouro Preto, 78 - Botafogo"},{"nome":"Teatro Café Pequeno","latitude":"-22.983817","longitude":"-43.217927","endereco":"Avenida Ataulfo de Paiva, 269 - Leblon"},{"nome":"Monumento aos Pracinhas","latitude":"-22.916495","longitude":"-43.174055","endereco":"Aterro do Flamengo, s/n - Flamengo"},{"nome":"Museu de Arte Moderna","latitude":"-22.913817","longitude":"-43.173207","endereco":"Avenida Infante Dom Henrique, 85 - Flamengo"},{"nome":"Estádio do Maracanã","latitude":"-22.913604","longitude":"-43.231068","endereco":"Rua Professor Eurico Rabelo, s/n - Maracanã"},{"nome":"Praia do Leblon","latitude":"-22.987276","longitude":"-43.221914","endereco":"Avenida Delfim Moreira, s/n - Leblon"},{"nome":"Teatro Dulcina","latitude":"-22.910700","longitude":"-43.177058","endereco":"Rua Alcindo Guanabara, 17 - Centro"},{"nome":"Teatro Rival Petrobras","latitude":"-22.911194","longitude":"-43.176263","endereco":"Rua Álvaro Alvim, 33 - Cinelândia"},{"nome":"Parque Eduardo Guinle","latitude":"-22.931401","longitude":"-43.182485","endereco":"Rua Gago Coutinho, 66 - Laranjeiras"},{"nome":"Museu da Chácara do Céu","latitude":"-22.917345","longitude":"-43.184135","endereco":"Rua Murtinho Nobre, 93 - Santa Teresa"},{"nome":"Fundação Eva Klabin Rapaport","latitude":"-22.975969","longitude":"-43.198141","endereco":"Avenida Epitácio Pessoa, 2480 - Lagoa"},{"nome":"Fundação Casa de Rui Barbosa","latitude":"-22.949440","longitude":"-43.186908","endereco":"Rua São Clemente, 134 - Botafogo"},{"nome":"Parque Peter Pan","latitude":"-22.983185","longitude":"-43.192067","endereco":"Rua Francisco Sá, s/n - Copacabana"},{"nome":"Museu do Índio","latitude":"-22.952010","longitude":"-43.191312","endereco":"Rua das Palmeiras, 55 - Botafogo"},{"nome":"Teatro Leblon","latitude":"-22.980851","longitude":"-43.222653","endereco":"Rua Conde de Bernadotte, 26 - Leblon"},{"nome":"Teatro Casa do Riso","latitude":"-22.979878","longitude":"-43.222715","endereco":"Rua Adalberto Ferreira, 32 - Leblon"},{"nome":"Centro Cultural Candido Mendes","latitude":"-22.984857","longitude":"-43.205058","endereco":"Rua Joana Angélica, 63 - Ipanema"},{"nome":"Teatro Ipanema","latitude":"-22.985310","longitude":"-43.204790","endereco":"Rua Prudente de Morais, 824 - Ipanema"},{"nome":"Museu Carmem Miranda","latitude":"-22.941391","longitude":"-43.172410","endereco":"Avenida Rui Barbosa, s/n - Flamengo"},{"nome":"Sala Baden Powell","latitude":"-22.967121","longitude":"-43.180619","endereco":"Avenida Nossa Senhora de Copacabana, 360 - Copacabana"},{"nome":"Teatro da Praia","latitude":"-22.983633","longitude":"-43.193341","endereco":"Rua Francisco Sá, 88 - Copacabana"}]