[{"nome":"Lagoa Rodrigo de Freitas","latitude":"-22.971314","longitude":"-43.211725","endereco":"Avenida Epitácio Pessoa, s/n - Lagoa"},{"nome":"Estádio do Maracanã","latitude":"-22.913604","longitude":"-43.231068","endereco":"Rua Professor Eurico Rabelo, s/n - Maracanã"},{"nome":"Teatro Café Pequeno","latitude":"-22.983817","longitude":"-43.217927","endereco":"Avenida Ataulfo de Paiva, 269 - Leblon"},{"nome":"Teatro Noel Rosa","latitude":"-22.910731","longitude":"-43.237617","endereco":"Rua São Francisco Xavier, 524 - Maracanã"},{"nome":"Praia do Leblon","latitude":"-22.987276","longitude":"-43.221914","endereco":"Avenida Delfim Moreira, s/n - Leblon"},{"nome":"Teatro Odylo Costa Filho","latitude":"-22.910556","longitude":"-43.235000","endereco":"Rua São Francisco Xavier, 524 - Maracanã"},{"nome":"Teatro Leblon","latitude":"-22.980851","longitude":"-43.222653","endereco":"Rua Conde de Bernadotte, 26 - Leblon"},{"nome":"Teatro Casa do Riso","latitude":"-22.979878","longitude":"-43.222715","endereco":"Rua Adalberto Ferreira, 32 - Leblon"},{"nome":"Fundação Eva Klabin Rapaport","latitude":"-22.975969","longitude":"-43.198141","endereco":"Avenida Epitácio Pessoa, 2480 - Lagoa"}]