[{"nome":"Teatro dos Grandes Atores","latitude":"-23.000442","longitude":"-43.349943","endereco":"Avenida das Américas,  3555 - Barra da Tijuca"},{"nome":"Teatro CEC Antonio Fagundes","latitude":"-22.990025","longitude":"-43.366205","endereco":"Avenida Ayrton Senna, 2541A - Barra da Tijuca"},{"nome":"Praia de São Conrado","latitude":"-23.000348","longitude":"-43.268882","endereco":"Estrada Lagoa Barra, s/n - São Conrado"},{"nome":"Planetário","latitude":"-22.978839","longitude":"-43.230247","endereco":"Rua Vice-governador Rubens Berardo, 100 - Gávea"},{"nome":"Teatro Casa do Riso","latitude":"-22.979878","longitude":"-43.222715","endereco":"Rua Adalberto Ferreira, 32 - Leblon"},{"nome":"Teatro Clara Nunes","latitude":"-22.975621","longitude":"-43.228071","endereco":"Rua Marquês de São Vicente, 52 - Gávea"},{"nome":"Teatro das Artes","latitude":"-22.975730","longitude":"-43.228284","endereco":"Rua Marquês de São Vicente, 52 - Gávea"},{"nome":"Teatro do Jockey","latitude":"-22.976997","longitude":"-43.224933","endereco":"Rua Bartolomeu Mitre, 1110 - Jardim Botânico"},{"nome":"Teatro dos Quatro","latitude":"-22.975678","longitude":"-43.228018","endereco":"Rua Marquês de São Vicente, 52 - Gávea"},{"nome":"Teatro Maria Clara Machado","latitude":"-22.978844","longitude":"-43.230249","endereco":"Avenida Padre Leonel Franca, 240 - Gávea"},{"nome":"Teatro Vanucci","latitude":"-22.975678","longitude":"-43.228262","endereco":"Rua Marquês de São Vicente, 52 - Gávea"},{"nome":"Praia do Pepino","latitude":"-23.000926","longitude":"-43.271189","endereco":"Estrada Lagoa Barra, s/n - São Conrado"},{"nome":"Praia do Pepê","latitude":"-23.015442","longitude":"-43.305255","endereco":"Avenida do Pepê, s/n - Barra da Tijuca"},{"nome":"Centro Cultural Anglo Americano (Suassuna)","latitude":"-23.000965","longitude":"-43.334382","endereco":"Avenida das Américas, 2603 - Barra da Tijuca"},{"nome":"Cidade das Artes","latitude":"-22.998611","longitude":"-43.365556","endereco":"Avenida das Américas, s/n - Barra da Tijuca"},{"nome":"Teatro Casa da Gávea","latitude":"-22.974058","longitude":"-43.226980","endereco":"Praça Santos Dumont, 116 - Gávea"}]