[{"nome":"Teatro Brigitte Blair","latitude":"-22.977920","longitude":"-43.191293","endereco":"Rua Miguel Lemos, 51 - Copacabana"},{"nome":"Academia Brasileira de Letras","latitude":"-22.910877","longitude":"-43.172971","endereco":"Avenida Presidente Wilson, 203 - Centro"},{"nome":"Museu Histórico Nacional","latitude":"-22.905556","longitude":"-43.169444","endereco":"Praça Marechal Âncora, s/n - Centro"},{"nome":"Sala Baden Powell","latitude":"-22.967121","longitude":"-43.180619","endereco":"Avenida Nossa Senhora de Copacabana, 360 - Copacabana"},{"nome":"Teatro Gláucio Gil","latitude":"-22.965395","longitude":"-43.180805","endereco":"Praça Cardeal Arcoverde, s/n - Copacabana"},{"nome":"Teatro do Instituto Benjamin Constant","latitude":"-22.953049","longitude":"-43.171969","endereco":"Avenida Pasteur, 350 - Urca"},{"nome":"Praia de Botafogo","latitude":"-22.945115","longitude":"-43.180842","endereco":"Avenida das Nações Unidas, s/n - Botafogo"},{"nome":"Teatro Princesa Isabel","latitude":"-22.963013","longitude":"-43.174309","endereco":"Avenida Princesa Isabel, 186 - Copacabana"},{"nome":"Teatro Villa Lobos","latitude":"-22.961308","longitude":"-43.175283","endereco":"Avenida Princesa Isabel, 440 - Copacabana"},{"nome":"Teatro Bibi Ferreira","latitude":"-22.946069","longitude":"-43.185328","endereco":"Rua Visconde de Ouro Preto, 78 - Botafogo"},{"nome":"Forte de Copacabana","latitude":"-22.985822","longitude":"-43.187846","endereco":"Praça Coronel Eugênio Franco, 1 - Copacabana"},{"nome":"Parque Peter Pan","latitude":"-22.983185","longitude":"-43.192067","endereco":"Rua Francisco Sá, s/n - Copacabana"},{"nome":"Teatro da Praia","latitude":"-22.983633","longitude":"-43.193341","endereco":"Rua Francisco Sá, 88 - Copacabana"},{"nome":"Praia do Arpoador","latitude":"-22.988889","longitude":"-43.192778","endereco":"Avenida Francisco Bering, s/n - Ipanema"},{"nome":"Praia de Copacabana","latitude":"-22.968588","longitude":"-43.179109","endereco":"Avenida Atlântica, s/n - Copacabana"},{"nome":"Museu Carmem Miranda","latitude":"-22.941391","longitude":"-43.172410","endereco":"Avenida Rui Barbosa, s/n - Flamengo"},{"nome":"Mosteiro de São Bento","latitude":"-22.896747","longitude":"-43.177885","endereco":"Rua Dom Gerardo, 68 - Centro"},{"nome":"Museu de Arte do Rio","latitude":"-22.896174","longitude":"-43.181736","endereco":"Praça Mauá, 5 - Centro"}]